{
  "_comment": "CANONICAL London place gazetteer — single source of truth for both the dashboard map labels (DeckScene.tsx fetches /geo/landmarks.json, rendering entries with label:true) and the Nemotron agent's knowledge graph (agent/nemoray_modelling/places.py reads this file from disk; ALL entries are resolvable/queryable regardless of label). Named emergency-service buildings are NOT listed here — they come from data/emergency|nemoray/data/*.csv via emergency.py and are merged into the graph at runtime, so this file never duplicates them. WGS84 lat/lng. 'tier' (0 major hub · 1 area/landmark · 2 finer POI) drives the HUD label declutter and only matters when label:true. 'category' ∈ area|landmark|attraction|transport|stadium|park|museum|government. 'aliases' are extra names the operator/agent might say. The first 34 entries (label:true) preserve the exact coords/tier of the previously-hardcoded DeckScene labels; flip label:true on any other entry to surface it on the map. Hand-authored; deterministic, offline, demo-safe.",
  "places": [
    { "id": "city-of-london", "name": "City of London", "category": "area", "lat": 51.515, "lng": -0.091, "tier": 0, "label": true, "aliases": ["the city", "square mile", "the square mile"], "description": "The historic financial core — the Square Mile." },
    { "id": "canary-wharf", "name": "Canary Wharf", "category": "area", "lat": 51.505, "lng": -0.0195, "tier": 0, "label": true, "aliases": ["docklands", "isle of dogs"], "description": "Docklands financial district on the Isle of Dogs." },
    { "id": "shoreditch", "name": "Shoreditch", "category": "area", "lat": 51.5265, "lng": -0.078, "tier": 0, "label": true, "aliases": [], "description": "East London tech and nightlife quarter." },
    { "id": "greenwich", "name": "Greenwich", "category": "area", "lat": 51.481, "lng": -0.009, "tier": 0, "label": true, "aliases": [], "description": "Maritime borough — the Royal Observatory and the prime meridian." },
    { "id": "bermondsey", "name": "Bermondsey", "category": "area", "lat": 51.498, "lng": -0.064, "tier": 0, "label": true, "aliases": [], "description": "Riverside district south of the Thames, east of London Bridge." },

    { "id": "the-shard", "name": "The Shard", "category": "landmark", "lat": 51.5045, "lng": -0.0865, "tier": 1, "label": true, "aliases": ["shard", "shard of glass"], "description": "Western Europe's tallest building, at London Bridge." },
    { "id": "tower-bridge", "name": "Tower Bridge", "category": "landmark", "lat": 51.5055, "lng": -0.0754, "tier": 1, "label": true, "aliases": [], "description": "Victorian bascule bridge beside the Tower of London." },
    { "id": "tower-of-london", "name": "Tower of London", "category": "landmark", "lat": 51.5081, "lng": -0.0759, "tier": 1, "label": true, "aliases": ["the tower"], "description": "Historic royal fortress on the Thames, home of the Crown Jewels." },
    { "id": "liverpool-street", "name": "Liverpool St", "category": "transport", "lat": 51.518, "lng": -0.0817, "tier": 1, "label": true, "aliases": ["liverpool street", "liverpool street station"], "description": "City rail and Underground terminus serving the east." },
    { "id": "bank", "name": "Bank", "category": "landmark", "lat": 51.5134, "lng": -0.0886, "tier": 1, "label": true, "aliases": ["bank of england", "bank junction", "threadneedle street"], "description": "City junction at the Bank of England and the Royal Exchange." },
    { "id": "borough-market", "name": "Borough Market", "category": "attraction", "lat": 51.5055, "lng": -0.0908, "tier": 1, "label": true, "aliases": [], "description": "Historic food market beside London Bridge." },
    { "id": "elephant-and-castle", "name": "Elephant & Castle", "category": "area", "lat": 51.4946, "lng": -0.1003, "tier": 1, "label": true, "aliases": ["elephant and castle"], "description": "South London junction and regeneration district." },
    { "id": "whitechapel", "name": "Whitechapel", "category": "area", "lat": 51.5195, "lng": -0.0613, "tier": 1, "label": true, "aliases": [], "description": "East End district, home of the Royal London Hospital." },
    { "id": "aldgate", "name": "Aldgate", "category": "area", "lat": 51.5143, "lng": -0.0755, "tier": 1, "label": true, "aliases": [], "description": "Eastern edge of the City of London." },
    { "id": "wapping", "name": "Wapping", "category": "area", "lat": 51.5043, "lng": -0.0578, "tier": 1, "label": true, "aliases": [], "description": "Riverside Docklands district east of the Tower." },
    { "id": "bethnal-green", "name": "Bethnal Green", "category": "area", "lat": 51.527, "lng": -0.0553, "tier": 1, "label": true, "aliases": [], "description": "East End district in Tower Hamlets." },
    { "id": "hoxton", "name": "Hoxton", "category": "area", "lat": 51.532, "lng": -0.0807, "tier": 1, "label": true, "aliases": [], "description": "Inner-city district on the City's northern fringe." },
    { "id": "limehouse", "name": "Limehouse", "category": "area", "lat": 51.5122, "lng": -0.0386, "tier": 1, "label": true, "aliases": [], "description": "Docklands district on the north bank of the Thames." },
    { "id": "poplar", "name": "Poplar", "category": "area", "lat": 51.5085, "lng": -0.0176, "tier": 1, "label": true, "aliases": [], "description": "District just north of Canary Wharf." },
    { "id": "rotherhithe", "name": "Rotherhithe", "category": "area", "lat": 51.501, "lng": -0.0524, "tier": 1, "label": true, "aliases": [], "description": "Historic riverside district on the Rotherhithe peninsula." },
    { "id": "surrey-quays", "name": "Surrey Quays", "category": "area", "lat": 51.4933, "lng": -0.0478, "tier": 1, "label": true, "aliases": [], "description": "Redeveloped docks district in south-east London." },
    { "id": "deptford", "name": "Deptford", "category": "area", "lat": 51.479, "lng": -0.0265, "tier": 1, "label": true, "aliases": [], "description": "South-east London district on the Thames, west of Greenwich." },
    { "id": "mile-end", "name": "Mile End", "category": "area", "lat": 51.5253, "lng": -0.0334, "tier": 1, "label": true, "aliases": [], "description": "East End district along the Mile End Road." },

    { "id": "the-gherkin", "name": "The Gherkin", "category": "landmark", "lat": 51.5145, "lng": -0.0803, "tier": 2, "label": true, "aliases": ["gherkin", "30 st mary axe"], "description": "Distinctive cone-shaped City skyscraper." },
    { "id": "monument", "name": "Monument", "category": "landmark", "lat": 51.5101, "lng": -0.086, "tier": 2, "label": true, "aliases": ["monument to the great fire"], "description": "Wren's column commemorating the Great Fire of London." },
    { "id": "fenchurch-street", "name": "Fenchurch St", "category": "transport", "lat": 51.5115, "lng": -0.078, "tier": 2, "label": true, "aliases": ["fenchurch street"], "description": "City rail terminus serving south Essex." },
    { "id": "spitalfields", "name": "Spitalfields", "category": "area", "lat": 51.5193, "lng": -0.0755, "tier": 2, "label": true, "aliases": ["old spitalfields market"], "description": "Market district on the City's eastern edge." },
    { "id": "brick-lane", "name": "Brick Lane", "category": "area", "lat": 51.5219, "lng": -0.0716, "tier": 2, "label": true, "aliases": [], "description": "Street famous for curry houses and street art." },
    { "id": "columbia-road", "name": "Columbia Road", "category": "area", "lat": 51.53, "lng": -0.07, "tier": 2, "label": true, "aliases": ["columbia road flower market"], "description": "Street known for its Sunday flower market." },
    { "id": "shadwell", "name": "Shadwell", "category": "area", "lat": 51.5117, "lng": -0.0568, "tier": 2, "label": true, "aliases": [], "description": "East London district between Wapping and Limehouse." },
    { "id": "canada-water", "name": "Canada Water", "category": "area", "lat": 51.498, "lng": -0.0498, "tier": 2, "label": true, "aliases": [], "description": "Rotherhithe transport and regeneration hub." },
    { "id": "west-india-quay", "name": "West India Quay", "category": "area", "lat": 51.507, "lng": -0.022, "tier": 2, "label": true, "aliases": [], "description": "Historic warehouses on the north of Canary Wharf." },
    { "id": "mudchute", "name": "Mudchute", "category": "area", "lat": 51.491, "lng": -0.014, "tier": 2, "label": true, "aliases": ["mudchute park"], "description": "Isle of Dogs park and city farm." },
    { "id": "cutty-sark", "name": "Cutty Sark", "category": "attraction", "lat": 51.4827, "lng": -0.0096, "tier": 2, "label": true, "aliases": [], "description": "Preserved 19th-century clipper ship in Greenwich." },

    { "id": "westminster", "name": "Westminster", "category": "area", "lat": 51.4995, "lng": -0.1248, "tier": 1, "label": false, "aliases": ["city of westminster", "whitehall"], "description": "Central government district — Parliament, Whitehall and Downing Street." },
    { "id": "soho", "name": "Soho", "category": "area", "lat": 51.5138, "lng": -0.1316, "tier": 2, "label": false, "aliases": [], "description": "West End entertainment and nightlife district." },
    { "id": "south-bank", "name": "South Bank", "category": "area", "lat": 51.506, "lng": -0.116, "tier": 1, "label": false, "aliases": ["southbank", "bankside"], "description": "Riverside cultural strip on the south of the Thames." },
    { "id": "camden-town", "name": "Camden Town", "category": "area", "lat": 51.539, "lng": -0.1426, "tier": 1, "label": false, "aliases": ["camden"], "description": "North London market and music district." },
    { "id": "stratford", "name": "Stratford", "category": "area", "lat": 51.5416, "lng": -0.003, "tier": 1, "label": false, "aliases": [], "description": "East London hub around the Queen Elizabeth Olympic Park." },
    { "id": "kensington", "name": "Kensington", "category": "area", "lat": 51.5, "lng": -0.19, "tier": 1, "label": false, "aliases": ["south kensington"], "description": "West London museum and embassy district." },
    { "id": "croydon", "name": "Croydon", "category": "area", "lat": 51.3762, "lng": -0.0982, "tier": 1, "label": false, "aliases": [], "description": "Major southern town centre and transport hub." },

    { "id": "houses-of-parliament", "name": "Houses of Parliament", "category": "government", "lat": 51.4995, "lng": -0.1248, "tier": 1, "label": false, "aliases": ["palace of westminster", "big ben", "parliament", "elizabeth tower"], "description": "The Palace of Westminster and the Elizabeth Tower (Big Ben)." },
    { "id": "downing-street", "name": "10 Downing Street", "category": "government", "lat": 51.5034, "lng": -0.1276, "tier": 2, "label": false, "aliases": ["downing street", "number 10", "no 10"], "description": "Office and residence of the Prime Minister." },
    { "id": "new-scotland-yard", "name": "New Scotland Yard", "category": "government", "lat": 51.5014, "lng": -0.1244, "tier": 2, "label": false, "aliases": ["scotland yard", "met police hq"], "description": "Headquarters of the Metropolitan Police." },
    { "id": "buckingham-palace", "name": "Buckingham Palace", "category": "landmark", "lat": 51.5014, "lng": -0.1419, "tier": 1, "label": false, "aliases": ["the palace"], "description": "The monarch's official London residence." },
    { "id": "lambeth-palace", "name": "Lambeth Palace", "category": "landmark", "lat": 51.4954, "lng": -0.121, "tier": 2, "label": false, "aliases": [], "description": "London residence of the Archbishop of Canterbury." },
    { "id": "trafalgar-square", "name": "Trafalgar Square", "category": "landmark", "lat": 51.508, "lng": -0.1281, "tier": 1, "label": false, "aliases": ["nelsons column"], "description": "Public square with Nelson's Column, the focal point of central London." },
    { "id": "piccadilly-circus", "name": "Piccadilly Circus", "category": "landmark", "lat": 51.5101, "lng": -0.134, "tier": 1, "label": false, "aliases": ["piccadilly"], "description": "Busy West End junction with its famous illuminated signs." },
    { "id": "oxford-circus", "name": "Oxford Circus", "category": "landmark", "lat": 51.5152, "lng": -0.1418, "tier": 1, "label": false, "aliases": ["oxford street"], "description": "Junction of Oxford Street and Regent Street — the busiest shopping crossing." },
    { "id": "st-pauls", "name": "St Paul's Cathedral", "category": "landmark", "lat": 51.5138, "lng": -0.0984, "tier": 1, "label": false, "aliases": ["st pauls", "saint pauls cathedral"], "description": "Wren's domed cathedral in the City of London." },
    { "id": "london-bridge", "name": "London Bridge", "category": "landmark", "lat": 51.5079, "lng": -0.0877, "tier": 2, "label": false, "aliases": [], "description": "Road bridge linking the City to Southwark." },
    { "id": "leadenhall-market", "name": "Leadenhall Market", "category": "attraction", "lat": 51.5128, "lng": -0.0833, "tier": 2, "label": false, "aliases": [], "description": "Ornate covered Victorian market in the City." },
    { "id": "battersea-power-station", "name": "Battersea Power Station", "category": "landmark", "lat": 51.4818, "lng": -0.1445, "tier": 1, "label": false, "aliases": ["battersea"], "description": "Iconic riverside former power station, now a mixed-use development." },
    { "id": "alexandra-palace", "name": "Alexandra Palace", "category": "landmark", "lat": 51.5945, "lng": -0.13, "tier": 1, "label": false, "aliases": ["ally pally"], "description": "Hilltop entertainment venue in north London." },

    { "id": "british-museum", "name": "British Museum", "category": "museum", "lat": 51.5194, "lng": -0.127, "tier": 1, "label": false, "aliases": [], "description": "World-history museum in Bloomsbury." },
    { "id": "natural-history-museum", "name": "Natural History Museum", "category": "museum", "lat": 51.4967, "lng": -0.1764, "tier": 1, "label": false, "aliases": ["nhm"], "description": "Natural-history museum in South Kensington." },
    { "id": "science-museum", "name": "Science Museum", "category": "museum", "lat": 51.4978, "lng": -0.1745, "tier": 2, "label": false, "aliases": [], "description": "Science and technology museum in South Kensington." },
    { "id": "va-museum", "name": "Victoria and Albert Museum", "category": "museum", "lat": 51.4966, "lng": -0.1722, "tier": 2, "label": false, "aliases": ["v and a", "vanda", "victoria & albert museum"], "description": "Art and design museum in South Kensington." },
    { "id": "tate-modern", "name": "Tate Modern", "category": "museum", "lat": 51.5076, "lng": -0.0994, "tier": 1, "label": false, "aliases": [], "description": "Modern-art gallery in a former Bankside power station." },
    { "id": "tate-britain", "name": "Tate Britain", "category": "museum", "lat": 51.4911, "lng": -0.1278, "tier": 2, "label": false, "aliases": [], "description": "British-art gallery at Millbank." },
    { "id": "royal-albert-hall", "name": "Royal Albert Hall", "category": "attraction", "lat": 51.5009, "lng": -0.1773, "tier": 1, "label": false, "aliases": ["albert hall"], "description": "Grand concert hall in South Kensington." },

    { "id": "wembley-stadium", "name": "Wembley Stadium", "category": "stadium", "lat": 51.556, "lng": -0.2796, "tier": 1, "label": false, "aliases": ["wembley"], "description": "The national football stadium, in north-west London." },
    { "id": "emirates-stadium", "name": "Emirates Stadium", "category": "stadium", "lat": 51.5549, "lng": -0.1084, "tier": 1, "label": false, "aliases": ["the emirates", "arsenal stadium"], "description": "Home of Arsenal FC in Holloway." },
    { "id": "stamford-bridge", "name": "Stamford Bridge", "category": "stadium", "lat": 51.4817, "lng": -0.191, "tier": 2, "label": false, "aliases": ["chelsea stadium"], "description": "Home of Chelsea FC in Fulham." },
    { "id": "tottenham-stadium", "name": "Tottenham Hotspur Stadium", "category": "stadium", "lat": 51.6043, "lng": -0.0665, "tier": 1, "label": false, "aliases": ["spurs stadium", "tottenham"], "description": "Home of Tottenham Hotspur in north London." },
    { "id": "london-stadium", "name": "London Stadium", "category": "stadium", "lat": 51.5386, "lng": -0.0166, "tier": 1, "label": false, "aliases": ["olympic stadium", "west ham stadium"], "description": "Olympic Park stadium, home of West Ham United." },
    { "id": "the-o2", "name": "The O2 Arena", "category": "attraction", "lat": 51.503, "lng": 0.0032, "tier": 1, "label": false, "aliases": ["o2", "the o2", "millennium dome", "north greenwich arena"], "description": "Major entertainment arena on the Greenwich Peninsula." },
    { "id": "excel-london", "name": "ExCeL London", "category": "attraction", "lat": 51.5081, "lng": 0.0294, "tier": 1, "label": false, "aliases": ["excel", "excel centre"], "description": "Exhibition and convention centre in the Royal Docks." },

    { "id": "hyde-park", "name": "Hyde Park", "category": "park", "lat": 51.5073, "lng": -0.1657, "tier": 1, "label": false, "aliases": [], "description": "Large royal park in central London." },
    { "id": "regents-park", "name": "Regent's Park", "category": "park", "lat": 51.5313, "lng": -0.157, "tier": 1, "label": false, "aliases": ["regents park", "london zoo"], "description": "Royal park and home of London Zoo." },
    { "id": "greenwich-park", "name": "Greenwich Park", "category": "park", "lat": 51.4769, "lng": -0.0005, "tier": 2, "label": false, "aliases": ["royal observatory", "greenwich observatory", "prime meridian"], "description": "Royal park containing the Royal Observatory and the prime meridian." },
    { "id": "olympic-park", "name": "Queen Elizabeth Olympic Park", "category": "park", "lat": 51.5386, "lng": -0.0166, "tier": 1, "label": false, "aliases": ["olympic park"], "description": "2012 Olympic legacy park in Stratford." },
    { "id": "hampstead-heath", "name": "Hampstead Heath", "category": "park", "lat": 51.5608, "lng": -0.1629, "tier": 1, "label": false, "aliases": ["the heath"], "description": "Large ancient parkland in north London." },
    { "id": "kew-gardens", "name": "Kew Gardens", "category": "park", "lat": 51.4787, "lng": -0.2956, "tier": 1, "label": false, "aliases": ["royal botanic gardens"], "description": "Royal Botanic Gardens in south-west London." },

    { "id": "kings-cross-st-pancras", "name": "King's Cross St Pancras", "category": "transport", "lat": 51.5308, "lng": -0.1238, "tier": 1, "label": false, "aliases": ["kings cross", "st pancras", "st pancras international", "kings cross station"], "description": "Major rail and Underground interchange, terminus for Eurostar." },
    { "id": "waterloo-station", "name": "Waterloo station", "category": "transport", "lat": 51.5033, "lng": -0.1145, "tier": 1, "label": false, "aliases": ["waterloo"], "description": "Britain's busiest railway station, on the South Bank." },
    { "id": "victoria-station", "name": "London Victoria station", "category": "transport", "lat": 51.4952, "lng": -0.1441, "tier": 1, "label": false, "aliases": ["victoria", "victoria station"], "description": "Major rail and coach terminus in Westminster." },
    { "id": "paddington-station", "name": "Paddington station", "category": "transport", "lat": 51.5154, "lng": -0.1755, "tier": 1, "label": false, "aliases": ["paddington"], "description": "Western rail terminus and Heathrow Express hub." },
    { "id": "euston-station", "name": "Euston station", "category": "transport", "lat": 51.5282, "lng": -0.1337, "tier": 1, "label": false, "aliases": ["euston"], "description": "West-coast main-line terminus in Camden." },
    { "id": "london-bridge-station", "name": "London Bridge station", "category": "transport", "lat": 51.505, "lng": -0.0864, "tier": 1, "label": false, "aliases": [], "description": "Major south-east rail and Underground hub beside the Shard." },
    { "id": "heathrow-airport", "name": "Heathrow Airport", "category": "transport", "lat": 51.47, "lng": -0.4543, "tier": 1, "label": false, "aliases": ["heathrow", "lhr"], "description": "London's principal international airport, to the west." },
    { "id": "london-city-airport", "name": "London City Airport", "category": "transport", "lat": 51.5048, "lng": 0.0495, "tier": 1, "label": false, "aliases": ["city airport", "lcy"], "description": "Business airport in the Royal Docks." },
    { "id": "camden-market", "name": "Camden Market", "category": "attraction", "lat": 51.5414, "lng": -0.146, "tier": 2, "label": false, "aliases": ["camden lock"], "description": "Sprawling alternative market in Camden Town." },

    {"id": "london-eye", "name": "London Eye", "category": "attraction", "lat": 51.5033, "lng": -0.1196, "tier": 2, "label": false, "aliases": ["millennium wheel"], "description": "135 m observation wheel on the South Bank."},
    {"id": "westminster-abbey", "name": "Westminster Abbey", "category": "landmark", "lat": 51.4994, "lng": -0.1273, "tier": 2, "label": false, "aliases": ["the abbey"], "description": "Gothic abbey church and coronation site beside Parliament."},
    {"id": "covent-garden", "name": "Covent Garden", "category": "area", "lat": 51.5117, "lng": -0.1234, "tier": 2, "label": false, "aliases": ["covent garden market", "covent garden piazza"], "description": "Piazza, market halls and theatre district in the West End."},
    {"id": "leicester-square", "name": "Leicester Square", "category": "landmark", "lat": 51.5103, "lng": -0.13, "tier": 2, "label": false, "aliases": [], "description": "Cinema and premiere square in the West End."},
    {"id": "charing-cross", "name": "Charing Cross", "category": "transport", "lat": 51.508, "lng": -0.1247, "tier": 2, "label": false, "aliases": ["charing cross station"], "description": "West End rail terminus at Trafalgar Square."},
    {"id": "somerset-house", "name": "Somerset House", "category": "attraction", "lat": 51.5111, "lng": -0.1172, "tier": 2, "label": false, "aliases": [], "description": "Neoclassical arts centre on the Strand."},
    {"id": "holborn", "name": "Holborn", "category": "area", "lat": 51.5174, "lng": -0.1201, "tier": 2, "label": false, "aliases": ["high holborn"], "description": "Midtown legal district between the City and the West End."},
    {"id": "royal-courts-of-justice", "name": "Royal Courts of Justice", "category": "government", "lat": 51.5136, "lng": -0.1133, "tier": 2, "label": false, "aliases": ["law courts", "high court"], "description": "The High Court and Court of Appeal, on the Strand."},
    {"id": "old-bailey", "name": "Old Bailey", "category": "government", "lat": 51.5156, "lng": -0.1018, "tier": 2, "label": false, "aliases": ["central criminal court"], "description": "The Central Criminal Court of England and Wales."},
    {"id": "clerkenwell", "name": "Clerkenwell", "category": "area", "lat": 51.5238, "lng": -0.1054, "tier": 2, "label": false, "aliases": [], "description": "Design and media quarter north of the City."},
    {"id": "farringdon", "name": "Farringdon", "category": "transport", "lat": 51.5203, "lng": -0.1053, "tier": 2, "label": false, "aliases": ["farringdon station"], "description": "Elizabeth line / Thameslink interchange on the City fringe."},
    {"id": "smithfield-market", "name": "Smithfield Market", "category": "attraction", "lat": 51.519, "lng": -0.1011, "tier": 2, "label": false, "aliases": ["smithfield"], "description": "Historic meat market at the City's north-west corner."},
    {"id": "barbican", "name": "Barbican", "category": "attraction", "lat": 51.52, "lng": -0.0937, "tier": 2, "label": false, "aliases": ["barbican centre", "barbican estate"], "description": "Brutalist arts centre and residential estate in the City."},
    {"id": "lloyds-of-london", "name": "Lloyd's of London", "category": "landmark", "lat": 51.5127, "lng": -0.0823, "tier": 2, "label": false, "aliases": ["lloyds building", "lloyds"], "description": "Inside-out insurance market building on Lime Street."},
    {"id": "leadenhall-building", "name": "Leadenhall Building", "category": "landmark", "lat": 51.5138, "lng": -0.0819, "tier": 2, "label": false, "aliases": ["cheesegrater", "122 leadenhall"], "description": "225 m wedge-shaped City tower — the Cheesegrater."},
    {"id": "twenty-fenchurch", "name": "20 Fenchurch Street", "category": "landmark", "lat": 51.5112, "lng": -0.0834, "tier": 2, "label": false, "aliases": ["walkie talkie", "sky garden", "walkie-talkie"], "description": "160 m City tower topped by the Sky Garden."},
    {"id": "twentytwo-bishopsgate", "name": "22 Bishopsgate", "category": "landmark", "lat": 51.5147, "lng": -0.0825, "tier": 2, "label": false, "aliases": ["twentytwo", "twenty two bishopsgate"], "description": "278 m tower — the tallest building in the City."},
    {"id": "moorgate", "name": "Moorgate", "category": "transport", "lat": 51.5186, "lng": -0.0886, "tier": 2, "label": false, "aliases": ["moorgate station"], "description": "City rail terminus beside the Barbican."},
    {"id": "cannon-street", "name": "Cannon Street", "category": "transport", "lat": 51.5113, "lng": -0.0905, "tier": 2, "label": false, "aliases": ["cannon street station"], "description": "City rail terminus above the Thames riverbank."},
    {"id": "blackfriars", "name": "Blackfriars", "category": "transport", "lat": 51.5114, "lng": -0.1035, "tier": 2, "label": false, "aliases": ["blackfriars station"], "description": "Thameslink station spanning the Thames on Blackfriars Bridge."},
    {"id": "shakespeares-globe", "name": "Shakespeare's Globe", "category": "attraction", "lat": 51.5081, "lng": -0.0972, "tier": 2, "label": false, "aliases": ["globe theatre", "the globe"], "description": "Reconstructed Elizabethan playhouse on Bankside."},
    {"id": "millennium-bridge", "name": "Millennium Bridge", "category": "landmark", "lat": 51.5095, "lng": -0.0984, "tier": 2, "label": false, "aliases": ["wobbly bridge"], "description": "Pedestrian bridge linking St Paul's to Tate Modern."},
    {"id": "southwark-cathedral", "name": "Southwark Cathedral", "category": "landmark", "lat": 51.5061, "lng": -0.0897, "tier": 2, "label": false, "aliases": [], "description": "Gothic cathedral beside Borough Market."},
    {"id": "hms-belfast", "name": "HMS Belfast", "category": "attraction", "lat": 51.5066, "lng": -0.0815, "tier": 2, "label": false, "aliases": [], "description": "WWII cruiser museum ship moored near Tower Bridge."},
    {"id": "st-katharine-docks", "name": "St Katharine Docks", "category": "area", "lat": 51.5064, "lng": -0.0717, "tier": 2, "label": false, "aliases": ["st katherine docks", "st katharines"], "description": "Marina basin immediately east of the Tower of London."},
    {"id": "one-canada-square", "name": "One Canada Square", "category": "landmark", "lat": 51.5051, "lng": -0.0194, "tier": 2, "label": false, "aliases": ["canada square", "canary wharf tower"], "description": "235 m pyramid-topped tower at the heart of Canary Wharf."},
    {"id": "museum-of-london-docklands", "name": "Museum of London Docklands", "category": "museum", "lat": 51.5074, "lng": -0.0234, "tier": 2, "label": false, "aliases": ["docklands museum"], "description": "Docklands history museum in a West India Quay warehouse."},
    {"id": "old-street", "name": "Old Street", "category": "area", "lat": 51.5257, "lng": -0.0875, "tier": 2, "label": false, "aliases": ["silicon roundabout", "tech city"], "description": "Tech cluster around the Old Street roundabout."},
    {"id": "hackney", "name": "Hackney", "category": "area", "lat": 51.545, "lng": -0.0553, "tier": 2, "label": false, "aliases": ["hackney central"], "description": "East London borough centre."},
    {"id": "dalston", "name": "Dalston", "category": "area", "lat": 51.5461, "lng": -0.075, "tier": 2, "label": false, "aliases": [], "description": "Nightlife and market district in Hackney."},
    {"id": "angel", "name": "Angel", "category": "area", "lat": 51.5322, "lng": -0.1058, "tier": 2, "label": false, "aliases": ["islington", "angel islington"], "description": "Islington's high-street district."},
    {"id": "vauxhall", "name": "Vauxhall", "category": "area", "lat": 51.4861, "lng": -0.1253, "tier": 2, "label": false, "aliases": ["mi6 building", "sis building"], "description": "Riverside district, home of the SIS (MI6) headquarters."},
    {"id": "imperial-war-museum", "name": "Imperial War Museum", "category": "museum", "lat": 51.4958, "lng": -0.1087, "tier": 2, "label": false, "aliases": ["iwm"], "description": "National war museum in Lambeth."},
    {"id": "the-oval", "name": "The Oval", "category": "stadium", "lat": 51.4837, "lng": -0.115, "tier": 2, "label": false, "aliases": ["kia oval", "kennington oval"], "description": "Surrey County Cricket Club's ground in Kennington."},
    {"id": "brixton", "name": "Brixton", "category": "area", "lat": 51.4627, "lng": -0.1145, "tier": 2, "label": false, "aliases": [], "description": "South London market and music district."},
    {"id": "clapham", "name": "Clapham", "category": "area", "lat": 51.4618, "lng": -0.1384, "tier": 2, "label": false, "aliases": ["clapham common"], "description": "Residential hub around Clapham Common."},
    {"id": "peckham", "name": "Peckham", "category": "area", "lat": 51.4735, "lng": -0.069, "tier": 2, "label": false, "aliases": ["peckham rye"], "description": "South-east London district."},
    {"id": "new-cross", "name": "New Cross", "category": "area", "lat": 51.4763, "lng": -0.0327, "tier": 2, "label": false, "aliases": [], "description": "South-east London district, home of Goldsmiths college."},
    {"id": "lewisham", "name": "Lewisham", "category": "area", "lat": 51.4646, "lng": -0.0131, "tier": 2, "label": false, "aliases": [], "description": "South-east London town centre."},
    {"id": "national-maritime-museum", "name": "National Maritime Museum", "category": "museum", "lat": 51.481, "lng": -0.0056, "tier": 2, "label": false, "aliases": ["maritime museum"], "description": "Maritime history museum in Greenwich Park."},
    {"id": "lords-cricket-ground", "name": "Lord's Cricket Ground", "category": "stadium", "lat": 51.5294, "lng": -0.1727, "tier": 2, "label": false, "aliases": ["lords"], "description": "MCC's cricket ground in St John's Wood — the home of cricket."}
  ]
}
